[
  {
    "format": "诪专拽讟",
    "name": "讗讜专 讬讛讜讚讛",
    "address": "讛诪驻注诇 13 讗讜专 讬讛讜讚讛",
    "city": "讗讜专 讬讛讜讚讛",
    "wazeUrl": "waze://?q=讛诪驻注诇+13+讗讜专+讬讛讜讚讛",
    "mapsUrl": "https://www.google.com/maps/search/?api=1&query=讛诪驻注诇+13+讗讜专+讬讛讜讚讛",
    "lat": 32.034363,
    "lng": 34.849128
  },
  {
    "format": "诪专拽讟",
    "name": "讗诇谞讘讬 讬专讜砖诇讬诐",
    "address": "讘讬转\"专 驻讬谞转 讬谞讜讘住拽讬  4 讬-诐",
    "city": "讬专讜砖诇讬诐",
    "wazeUrl": "waze://?q=讘讬转\"专+驻讬谞转+讬谞讜讘住拽讬++4+讬-诐",
    "mapsUrl": "https://www.google.com/maps/search/?api=1&query=讘讬转\"专+驻讬谞转+讬谞讜讘住拽讬++4+讬-诐",
    "lat": 31.778847,
    "lng": 35.225786
  },
  {
    "format": "诪专拽讟",
    "name": "讗砖讚讜讚 讞",
    "address": "诪专讻讝 讻诇谞讬讜转  讗砖讚讜讚",
    "city": "讗砖讚讜讚",
    "wazeUrl": "waze://?q=诪专讻讝+讻诇谞讬讜转++讗砖讚讜讚",
    "mapsUrl": "https://www.google.com/maps/search/?api=1&query=诪专讻讝+讻诇谞讬讜转++讗砖讚讜讚",
    "lat": 31.783661,
    "lng": 34.653599
  },
  {
    "format": "诪专拽讟",
    "name": "诪讙讚诇 讛注诪拽",
    "address": "专讞' 谞讬爪谞讬诐 39, 诪讙讚诇 讛注诪拽",
    "city": "诪讙讚诇 讛注诪拽",
    "wazeUrl": "waze://?q=专讞'+谞讬爪谞讬诐+39,+诪讙讚诇+讛注诪拽",
    "mapsUrl": "https://www.google.com/maps/search/?api=1&query=专讞'+谞讬爪谞讬诐+39,+诪讙讚诇+讛注诪拽",
    "lat": 32.676574,
    "lng": 35.241324
  },
  {
    "format": "诪专拽讟",
    "name": "驻转讞 转拽讜讛",
    "address": "讘专 讻讜讻讘讗 63 ,驻转讞 转拽讜讜讛",
    "city": "驻转讞 转拽讜讜讛",
    "wazeUrl": "waze://?q=讘专+讻讜讻讘讗+63+,驻转讞+转拽讜讜讛",
    "mapsUrl": "https://www.google.com/maps/search/?api=1&query=讘专+讻讜讻讘讗+63+,驻转讞+转拽讜讜讛",
    "lat": 32.09653,
    "lng": 34.885532
  },
  {
    "format": "诪专拽讟",
    "name": "讘讗专 砖讘注",
    "address": "谞讬讜谉 讗讘讬讛 -诪讘爪注 讬讜讗讘 驻讬谞转 砖讗讜诇 讛诪诇讱 讘\"砖",
    "city": "讘讗专 砖讘注",
    "wazeUrl": "waze://?q=谞讬讜谉+讗讘讬讛+-诪讘爪注+讬讜讗讘+驻讬谞转+砖讗讜诇+讛诪诇讱+讘\"砖",
    "mapsUrl": "https://www.google.com/maps/search/?api=1&query=谞讬讜谉+讗讘讬讛+-诪讘爪注+讬讜讗讘+驻讬谞转+砖讗讜诇+讛诪诇讱+讘\"砖",
    "lat": 31.245744,
    "lng": 34.792518
  },
  {
    "format": "诪专拽讟",
    "name": "讗砖拽诇讜谉",
    "address": "拽讬讘讜抓 讙诇讜讬讜转 5 讗砖拽诇讜谉",
    "city": "讗砖拽诇讜谉",
    "wazeUrl": "waze://?q=拽讬讘讜抓+讙诇讜讬讜转+5+讗砖拽诇讜谉",
    "mapsUrl": "https://www.google.com/maps/search/?api=1&query=拽讬讘讜抓+讙诇讜讬讜转+5+讗砖拽诇讜谉",
    "lat": 31.66568,
    "lng": 34.566874
  },
  {
    "format": "诪专拽讟",
    "name": "讞讬驻讛",
    "address": "专讞' 砖讚' 讛谞砖讬讗 诪专讻讝 讛讻专诪诇 讞讬驻讛",
    "city": "讞讬驻讛",
    "wazeUrl": "waze://?q=专讞'+砖讚'+讛谞砖讬讗+诪专讻讝+讛讻专诪诇+讞讬驻讛",
    "mapsUrl": "https://www.google.com/maps/search/?api=1&query=专讞'+砖讚'+讛谞砖讬讗+诪专讻讝+讛讻专诪诇+讞讬驻讛",
    "lat": 32.819122,
    "lng": 34.998386
  },
  {
    "format": "诪专拽讟",
    "name": "讚诇讬讬转 讗诇 讻专诪诇",
    "address": "讚专讱 专讗砖讬转 672, 讻讬讻专 讞诪讜讚 讗诇-拽讗专讛",
    "city": "讚诇讬讬转 讗诇 讻专诪诇",
    "wazeUrl": "waze://?q=讚专讱+专讗砖讬转+672,+讻讬讻专+讞诪讜讚+讗诇-拽讗专讛",
    "mapsUrl": "https://www.google.com/maps/search/?api=1&query=讚专讱+专讗砖讬转+672,+讻讬讻专+讞诪讜讚+讗诇-拽讗专讛",
    "lat": 32.692239,
    "lng": 35.048279
  },
  {
    "format": "诪专拽讟",
    "name": "讙讘注转讬讬诐",
    "address": "专讞' 讻讜专讝讬谉 1 讙讘注转讬讬诐",
    "city": "讙讘注转讬讬诐",
    "wazeUrl": "waze://?q=专讞'+讻讜专讝讬谉+1+讙讘注转讬讬诐",
    "mapsUrl": "https://www.google.com/maps/search/?api=1&query=专讞'+讻讜专讝讬谉+1+讙讘注转讬讬诐",
    "lat": 32.072961,
    "lng": 34.811328
  },
  {
    "format": "诪专拽讟",
    "name": "专诪诇讛",
    "address": "砖讚专讜转 讛专爪诇 45 , 专诪诇讛",
    "city": "专诪诇讛",
    "wazeUrl": "waze://?q=砖讚专讜转+讛专爪诇+45+,+专诪诇讛",
    "mapsUrl": "https://www.google.com/maps/search/?api=1&query=砖讚专讜转+讛专爪诇+45+,+专诪诇讛",
    "lat": 31.928916,
    "lng": 34.871037
  },
  {
    "format": "诪专拽讟",
    "name": "诪注诇讜转 转专砖讬讞讗",
    "address": "砖诇诪讛 砖专讬专讗 3,诪注诇讜转 转专砖讬讞讗",
    "city": "诪注诇讜转 转专砖讬讞讗",
    "wazeUrl": "waze://?q=砖诇诪讛+砖专讬专讗+3,诪注诇讜转+转专砖讬讞讗",
    "mapsUrl": "https://www.google.com/maps/search/?api=1&query=砖诇诪讛+砖专讬专讗+3,诪注诇讜转+转专砖讬讞讗",
    "lat": 33.019899,
    "lng": 35.283323
  },
  {
    "format": "诪专拽讟",
    "name": "专讗砖诇爪",
    "address": "专讞讜讘 讛讞诇诪讜谞讬转 29, 专讗砖诇\"爪",
    "city": "专讗砖讜谉 诇爪讬讜谉",
    "wazeUrl": "waze://?q=专讞讜讘+讛讞诇诪讜谞讬转+29,+专讗砖诇\"爪",
    "mapsUrl": "https://www.google.com/maps/search/?api=1&query=专讞讜讘+讛讞诇诪讜谞讬转+29,+专讗砖诇\"爪",
    "lat": 31.974769,
    "lng": 34.778334
  },
  {
    "format": "诪专拽讟",
    "name": "驻转讞 转拽讜讜讛",
    "address": "砖讟诪驻驻专 73, 驻讬谞转 讗讘谞讬讗诇 驻\"转",
    "city": "驻转讞 转拽讜讜讛",
    "wazeUrl": "waze://?q=砖讟诪驻驻专+73,+驻讬谞转+讗讘谞讬讗诇+驻\"转",
    "mapsUrl": "https://www.google.com/maps/search/?api=1&query=砖讟诪驻驻专+73,+驻讬谞转+讗讘谞讬讗诇+驻\"转",
    "lat": 32.087764,
    "lng": 34.885998
  },
  {
    "format": "诪专拽讟",
    "name": "讙谞讬 讗讘讬讘 诇讜讚",
    "address": "讗专讘注 注讜谞讜转 14 诇讜讚",
    "city": "诇讜讚",
    "wazeUrl": "waze://?q=讗专讘注+注讜谞讜转+14+诇讜讚",
    "mapsUrl": "https://www.google.com/maps/search/?api=1&query=讗专讘注+注讜谞讜转+14+诇讜讚",
    "lat": 31.958847,
    "lng": 34.880364
  },
  {
    "format": "诪专拽讟",
    "name": "讗砖拽诇讜谉",
    "address": "砖讚专讜转 讬专讜砖诇讬诐 5 讗砖拽诇讜谉",
    "city": "讗砖拽诇讜谉",
    "wazeUrl": "waze://?q=砖讚专讜转+讬专讜砖诇讬诐+5+讗砖拽诇讜谉",
    "mapsUrl": "https://www.google.com/maps/search/?api=1&query=砖讚专讜转+讬专讜砖诇讬诐+5+讗砖拽诇讜谉",
    "lat": 31.697733,
    "lng": 34.57829
  },
  {
    "format": "诪专拽讟",
    "name": "诪讜讚讬注讬谉",
    "address": "专讞讜讘  注诪拽 讘讬转 砖讗谉 29  , 诪讜讚讬注讬谉",
    "city": "诪讜讚讬注讬谉",
    "wazeUrl": "waze://?q=专讞讜讘++注诪拽+讘讬转+砖讗谉+29++,+诪讜讚讬注讬谉",
    "mapsUrl": "https://www.google.com/maps/search/?api=1&query=专讞讜讘++注诪拽+讘讬转+砖讗谉+29++,+诪讜讚讬注讬谉",
    "lat": 31.895278,
    "lng": 34.989231
  },
  {
    "format": "诪专拽讟",
    "name": "专诪诇讛",
    "address": "专讞' 讗讘讗 讗讞讬诪讗讬专 1, 拽专讬转-诪谞讞诐, 专诪诇讛",
    "city": "专诪诇讛",
    "wazeUrl": "waze://?q=专讞'+讗讘讗+讗讞讬诪讗讬专+1,+拽专讬转-诪谞讞诐,+专诪诇讛",
    "mapsUrl": "https://www.google.com/maps/search/?api=1&query=专讞'+讗讘讗+讗讞讬诪讗讬专+1,+拽专讬转-诪谞讞诐,+专诪诇讛",
    "lat": 31.927999,
    "lng": 34.862347
  },
  {
    "format": "诪专拽讟",
    "name": "讬讘谞讛",
    "address": "讚讜讗谞讬 42, 讬讘谞讛",
    "city": "讬讘谞讛",
    "wazeUrl": "waze://?q=讚讜讗谞讬+42,+讬讘谞讛",
    "mapsUrl": "https://www.google.com/maps/search/?api=1&query=讚讜讗谞讬+42,+讬讘谞讛",
    "lat": 31.86926,
    "lng": 34.744141
  },
  {
    "format": "诪专拽讟",
    "name": "专诪诇讛",
    "address": "专讞讜讘 拽诇讗讜讝谞专 10 专诪诇讛",
    "city": "专诪诇讛",
    "wazeUrl": "waze://?q=专讞讜讘+拽诇讗讜讝谞专+10+专诪诇讛",
    "mapsUrl": "https://www.google.com/maps/search/?api=1&query=专讞讜讘+拽诇讗讜讝谞专+10+专诪诇讛",
    "lat": 31.927999,
    "lng": 34.862347
  },
  {
    "format": "诪专拽讟",
    "name": "谞转谞讬讛",
    "address": "讛讗专讬 12, 谞转谞讬讛",
    "city": "谞转谞讬讛",
    "wazeUrl": "waze://?q=讛讗专讬+12,+谞转谞讬讛",
    "mapsUrl": "https://www.google.com/maps/search/?api=1&query=讛讗专讬+12,+谞转谞讬讛",
    "lat": 32.28623,
    "lng": 34.866048
  },
  {
    "format": "诪专拽讟",
    "name": "讻专讻讜专",
    "address": "专讞讜讘 砖讚专讜转 诪讞谞讛 80 ,诪住驻专 4, 讻专讻讜专",
    "city": "讻专讻讜专",
    "wazeUrl": "waze://?q=专讞讜讘+砖讚专讜转+诪讞谞讛+80+,诪住驻专+4,+讻专讻讜专",
    "mapsUrl": "https://www.google.com/maps/search/?api=1&query=专讞讜讘+砖讚专讜转+诪讞谞讛+80+,诪住驻专+4,+讻专讻讜专",
    "lat": 31.346474,
    "lng": 34.76732
  },
  {
    "format": "诪专拽讟",
    "name": "讙谉 讬讘谞讛",
    "address": "专讞' 拽讬讘讜抓 讙诇讜讬讜转 驻讬谞转 讛专爪诇 1 讙谉 讬讘谞讛",
    "city": "讙谉 讬讘谞讛",
    "wazeUrl": "waze://?q=专讞'+拽讬讘讜抓+讙诇讜讬讜转+驻讬谞转+讛专爪诇+1+讙谉+讬讘谞讛",
    "mapsUrl": "https://www.google.com/maps/search/?api=1&query=专讞'+拽讬讘讜抓+讙诇讜讬讜转+驻讬谞转+讛专爪诇+1+讙谉+讬讘谞讛",
    "lat": 31.787109,
    "lng": 34.709663
  },
  {
    "format": "诪专拽讟",
    "name": "讘讬转 讗诇讬注讝专 讞讚专讛",
    "address": "讛注爪诪讗讜转21 讘讬转 讗诇讬注讝专-讞讚专讛",
    "city": "讞讚专讛",
    "wazeUrl": "waze://?q=讛注爪诪讗讜转21+讘讬转+讗诇讬注讝专-讞讚专讛",
    "mapsUrl": "https://www.google.com/maps/search/?api=1&query=讛注爪诪讗讜转21+讘讬转+讗诇讬注讝专-讞讚专讛",
    "lat": 32.440742,
    "lng": 34.940105
  },
  {
    "format": "诪专拽讟",
    "name": "专注谞谞讛",
    "address": "诪专讻讝 讙讜诇谉, 讗讞讜讝讛 198, 专注谞谞讛",
    "city": "专注谞谞讛",
    "wazeUrl": "waze://?q=诪专讻讝+讙讜诇谉,+讗讞讜讝讛+198,+专注谞谞讛",
    "mapsUrl": "https://www.google.com/maps/search/?api=1&query=诪专讻讝+讙讜诇谉,+讗讞讜讝讛+198,+专注谞谞讛",
    "lat": 32.186024,
    "lng": 34.867836
  },
  {
    "format": "诪专拽讟",
    "name": "讗讬诇转",
    "address": "讞讟讬讘转 讙讜诇谞讬 41 ,讗讬诇转",
    "city": "讗讬诇转",
    "wazeUrl": "waze://?q=讞讟讬讘转+讙讜诇谞讬+41+,讗讬诇转",
    "mapsUrl": "https://www.google.com/maps/search/?api=1&query=讞讟讬讘转+讙讜诇谞讬+41+,讗讬诇转",
    "lat": 29.562105,
    "lng": 34.955266
  },
  {
    "format": "诪专拽讟",
    "name": "讙讗讬诇转",
    "address": "专讞讜讘 讙讜诇谞讬 43",
    "city": "讗讬诇转",
    "wazeUrl": "waze://?q=专讞讜讘+讙讜诇谞讬+43",
    "mapsUrl": "https://www.google.com/maps/search/?api=1&query=专讞讜讘+讙讜诇谞讬+43",
    "lat": 29.556935,
    "lng": 34.949795
  },
  {
    "format": "诪专拽讟",
    "name": "讬讘谞讛 谞讗讜转 砖诪讬专",
    "address": "讛专爪诇 19 ,讬讘谞讛",
    "city": "讬讘谞讛",
    "wazeUrl": "waze://?q=讛专爪诇+19+,讬讘谞讛",
    "mapsUrl": "https://www.google.com/maps/search/?api=1&query=讛专爪诇+19+,讬讘谞讛",
    "lat": 31.869874,
    "lng": 34.731102
  },
  {
    "format": "诪专拽讟",
    "name": "专讗砖 讛注讬谉",
    "address": "讬讛讜砖讜注 讘谉 谞讜谉 77 , 专讗砖 讛注讬谉",
    "city": "专讗砖 讛注讬谉",
    "wazeUrl": "waze://?q=讬讛讜砖讜注+讘谉+谞讜谉+77+,+专讗砖+讛注讬谉",
    "mapsUrl": "https://www.google.com/maps/search/?api=1&query=讬讛讜砖讜注+讘谉+谞讜谉+77+,+专讗砖+讛注讬谉",
    "lat": 32.095293,
    "lng": 34.953322
  },
  {
    "format": "诪专拽讟",
    "name": "拽专讬讬转 砖诪讜谞讛",
    "address": "讟砖专谞讬讞讜讘住拽讬 4, 拽专讬讬转 砖诪讜谞讛",
    "city": "拽专讬讬转 砖诪讜谞讛",
    "wazeUrl": "waze://?q=讟砖专谞讬讞讜讘住拽讬+4,+拽专讬讬转+砖诪讜谞讛",
    "mapsUrl": "https://www.google.com/maps/search/?api=1&query=讟砖专谞讬讞讜讘住拽讬+4,+拽专讬讬转+砖诪讜谞讛",
    "lat": 33.211141,
    "lng": 35.568706
  },
  {
    "format": "诪专拽讟",
    "name": "讘讬转 砖诪砖",
    "address": "砖讚' 讛讗诪专讜讗讬诐 28 , 讘讬转 砖诪砖",
    "city": "讘讬转 砖诪砖",
    "wazeUrl": "waze://?q=砖讚'+讛讗诪专讜讗讬诐+28+,+讘讬转+砖诪砖",
    "mapsUrl": "https://www.google.com/maps/search/?api=1&query=砖讚'+讛讗诪专讜讗讬诐+28+,+讘讬转+砖诪砖",
    "lat": 31.746214,
    "lng": 34.988683
  },
  {
    "format": "讛讬驻专",
    "name": "讗讜专 注拽讬讘讗",
    "address": "讛讗讬诇谉 1 讗讜专 注拽讬讘讗",
    "city": "讗讜专 注拽讬讘讗",
    "wazeUrl": "waze://?q=讛讗讬诇谉+1+讗讜专+注拽讬讘讗",
    "mapsUrl": "https://www.google.com/maps/search/?api=1&query=讛讗讬诇谉+1+讗讜专+注拽讬讘讗",
    "lat": 32.515569,
    "lng": 34.922572
  },
  {
    "format": "讛讬驻专",
    "name": "讘讬转 砖诪砖",
    "address": "讬讙讗诇 讗诇讜谉 1 , 讘讬转 砖诪砖",
    "city": "讘讬转 砖诪砖",
    "wazeUrl": "waze://?q=讬讙讗诇+讗诇讜谉+1+,+讘讬转+砖诪砖",
    "mapsUrl": "https://www.google.com/maps/search/?api=1&query=讬讙讗诇+讗诇讜谉+1+,+讘讬转+砖诪砖",
    "lat": 31.755957,
    "lng": 34.989832
  },
  {
    "format": "讛讬驻专",
    "name": "专注谞谞讛",
    "address": "讝专讞讬谉 12 专注谞谞讛",
    "city": "专注谞谞讛",
    "wazeUrl": "waze://?q=讝专讞讬谉+12+专注谞谞讛",
    "mapsUrl": "https://www.google.com/maps/search/?api=1&query=讝专讞讬谉+12+专注谞谞讛",
    "lat": 32.198121,
    "lng": 34.882349
  },
  {
    "format": "讛讬驻专",
    "name": "注专讚",
    "address": "讛转注砖讬讛 60, 注专讚",
    "city": "注专讚",
    "wazeUrl": "waze://?q=讛转注砖讬讛+60,+注专讚",
    "mapsUrl": "https://www.google.com/maps/search/?api=1&query=讛转注砖讬讛+60,+注专讚",
    "lat": 31.246741,
    "lng": 35.196083
  },
  {
    "format": "讛讬驻专",
    "name": "讘讬转 砖讗谉",
    "address": "讘讬转 砖讗谉 讗.转 爪驻讜谞讬",
    "city": "讘讬转 砖讗谉",
    "wazeUrl": "waze://?q=讘讬转+砖讗谉+讗.转+爪驻讜谞讬",
    "mapsUrl": "https://www.google.com/maps/search/?api=1&query=讘讬转+砖讗谉+讗.转+爪驻讜谞讬",
    "lat": 32.496752,
    "lng": 35.497302
  },
  {
    "format": "讛讬驻专",
    "name": "讻驻专 住讘讗",
    "address": "讛砖讬讟讛 4, 讻驻专 住讘讗",
    "city": "讻驻专 住讘讗",
    "wazeUrl": "waze://?q=讛砖讬讟讛+4,+讻驻专+住讘讗",
    "mapsUrl": "https://www.google.com/maps/search/?api=1&query=讛砖讬讟讛+4,+讻驻专+住讘讗",
    "lat": 32.175973,
    "lng": 34.933409
  },
  {
    "format": "讛讬驻专",
    "name": "砖讚专讜转",
    "address": "拽谞讬讜谉 驻谞讬谞转 讛谞讙讘 讗\"转 讚专讜诪讬",
    "city": "砖讚专讜转",
    "wazeUrl": "waze://?q=拽谞讬讜谉+驻谞讬谞转+讛谞讙讘+讗\"转+讚专讜诪讬",
    "mapsUrl": "https://www.google.com/maps/search/?api=1&query=拽谞讬讜谉+驻谞讬谞转+讛谞讙讘+讗\"转+讚专讜诪讬",
    "lat": 31.531263,
    "lng": 34.594281
  },
  {
    "format": "讛讬驻专",
    "name": "讗砖拽诇讜谉",
    "address": "讛驻谞讬谞讬诐 28 ,讗砖拽诇讜谉",
    "city": "讗砖拽诇讜谉",
    "wazeUrl": "waze://?q=讛驻谞讬谞讬诐+28+,讗砖拽诇讜谉",
    "mapsUrl": "https://www.google.com/maps/search/?api=1&query=讛驻谞讬谞讬诐+28+,讗砖拽诇讜谉",
    "lat": 31.667321,
    "lng": 34.601532
  },
  {
    "format": "讛讬驻专",
    "name": "讘讗专 砖讘注",
    "address": "拽谞讬讜谉 住讬谞讬诪讛 住讬讟讬, 讛讞讬讟讛 1 讘讗专 砖讘注",
    "city": "讘讗专 砖讘注",
    "wazeUrl": "waze://?q=拽谞讬讜谉+住讬谞讬诪讛+住讬讟讬,+讛讞讬讟讛+1+讘讗专+砖讘注",
    "mapsUrl": "https://www.google.com/maps/search/?api=1&query=拽谞讬讜谉+住讬谞讬诪讛+住讬讟讬,+讛讞讬讟讛+1+讘讗专+砖讘注",
    "lat": 31.245744,
    "lng": 34.792518
  },
  {
    "format": "讛讬驻专",
    "name": "注驻讜诇讛",
    "address": "砖讚专讜转 诪谞讞诐 讘讙讬谉 53 , 注驻讜诇讛",
    "city": "注驻讜诇讛",
    "wazeUrl": "waze://?q=砖讚专讜转+诪谞讞诐+讘讙讬谉+53+,+注驻讜诇讛",
    "mapsUrl": "https://www.google.com/maps/search/?api=1&query=砖讚专讜转+诪谞讞诐+讘讙讬谉+53+,+注驻讜诇讛",
    "lat": 32.603829,
    "lng": 35.298516
  },
  {
    "format": "讛讬驻专",
    "name": "谞转讬讘讜转",
    "address": "讘注诇讬 讛诪诇讗讻讛 3 , 谞转讬讘讜转",
    "city": "谞转讬讘讜转",
    "wazeUrl": "waze://?q=讘注诇讬+讛诪诇讗讻讛+3+,+谞转讬讘讜转",
    "mapsUrl": "https://www.google.com/maps/search/?api=1&query=讘注诇讬+讛诪诇讗讻讛+3+,+谞转讬讘讜转",
    "lat": 31.41931,
    "lng": 34.598398
  },
  {
    "format": "讛讬驻专",
    "name": "讬专讜砖诇讬诐",
    "address": "讛讗讜诪谉 14, 讬专讜砖诇讬诐",
    "city": "讬专讜砖诇讬诐",
    "wazeUrl": "waze://?q=讛讗讜诪谉+14,+讬专讜砖诇讬诐",
    "mapsUrl": "https://www.google.com/maps/search/?api=1&query=讛讗讜诪谉+14,+讬专讜砖诇讬诐",
    "lat": 31.750153,
    "lng": 35.209877
  },
  {
    "format": "讛讬驻专",
    "name": "讗讜驻拽讬诐",
    "address": "讘爪诇讗诇 1 , 讗讜驻拽讬诐",
    "city": "讗讜驻拽讬诐",
    "wazeUrl": "waze://?q=讘爪诇讗诇+1+,+讗讜驻拽讬诐",
    "mapsUrl": "https://www.google.com/maps/search/?api=1&query=讘爪诇讗诇+1+,+讗讜驻拽讬诐",
    "lat": 31.311981,
    "lng": 34.628739
  },
  {
    "format": "诪讛讚专讬谉",
    "name": "诪讛讚专讬谉 谞讗讜转 讞谉 讞讚专讛",
    "address": "讛诇诇 讬驻讛 5 驻讬谞转 住诪讬诇谞住拽讬",
    "city": "讞讚专讛",
    "wazeUrl": "waze://?q=讛诇诇+讬驻讛+5+驻讬谞转+住诪讬诇谞住拽讬",
    "mapsUrl": "https://www.google.com/maps/search/?api=1&query=讛诇诇+讬驻讛+5+驻讬谞转+住诪讬诇谞住拽讬",
    "lat": 32.440742,
    "lng": 34.940105
  },
  {
    "format": "诪讛讚专讬谉",
    "name": "诪讛讚专讬谉 讗诇注讚",
    "address": "讘谉 讝讻讗讬 32, 讗诇注讚",
    "city": "讗诇注讚",
    "wazeUrl": "waze://?q=讘谉+讝讻讗讬+32,+讗诇注讚",
    "mapsUrl": "https://www.google.com/maps/search/?api=1&query=讘谉+讝讻讗讬+32,+讗诇注讚",
    "lat": 32.048461,
    "lng": 34.96588
  },
  {
    "format": "诪讛讚专讬谉",
    "name": "诪讛讚专讬谉 讘讬转 砖诪砖",
    "address": "谞讞诇 讛砖讜专拽 23, 讘讬转 砖诪砖",
    "city": "讘讬转 砖诪砖",
    "wazeUrl": "waze://?q=谞讞诇+讛砖讜专拽+23,+讘讬转+砖诪砖",
    "mapsUrl": "https://www.google.com/maps/search/?api=1&query=谞讞诇+讛砖讜专拽+23,+讘讬转+砖诪砖",
    "lat": 31.746214,
    "lng": 34.988683
  },
  {
    "format": "诪讛讚专讬谉",
    "name": "诪讛讚专讬谉 讛专爪诇 讞讬驻讛",
    "address": "讛专爪诇 97 讞讬驻讛",
    "city": "讞讬驻讛",
    "wazeUrl": "waze://?q=讛专爪诇+97+讞讬驻讛",
    "mapsUrl": "https://www.google.com/maps/search/?api=1&query=讛专爪诇+97+讞讬驻讛",
    "lat": 32.80481,
    "lng": 35.003467
  },
  {
    "format": "诪讛讚专讬谉",
    "name": "诪讛讚专讬谉 专讬讬谞住 讬专讜砖诇讬诐",
    "address": "专讬讬谞住 6 砖讻讜谞转 拽. 诪砖讛",
    "city": "讬专讜砖诇讬诐",
    "wazeUrl": "waze://?q=专讬讬谞住+6+砖讻讜谞转+拽.+诪砖讛",
    "mapsUrl": "https://www.google.com/maps/search/?api=1&query=专讬讬谞住+6+砖讻讜谞转+拽.+诪砖讛",
    "lat": 31.778847,
    "lng": 35.225786
  },
  {
    "format": "诪讛讚专讬谉",
    "name": "诪讛讚专讬谉 注诪讬砖讘 驻\"转",
    "address": "讚专讱 诪谞讞诐 讘讙讬谉 96, 驻\"转",
    "city": "驻转讞 转拽讜讜讛",
    "wazeUrl": "waze://?q=讚专讱+诪谞讞诐+讘讙讬谉+96,+驻\"转",
    "mapsUrl": "https://www.google.com/maps/search/?api=1&query=讚专讱+诪谞讞诐+讘讙讬谉+96,+驻\"转",
    "lat": 32.087764,
    "lng": 34.885998
  }
]
